City,Country,Latitude,Longitude,Temperature,Wind,Pressure,Humidity,Cloudiness,Date
rikitea,TR,-23.1203,-134.9692,22.95,3.05,1019.0,73.0,99.0,1630954992.0
rawah,TR,34.4816,41.9093,32.2,4.1,1007.0,22.0,0.0,1630954993.0
rio grande,TR,-32.035,-52.0986,18.86,7.99,1019.0,80.0,99.0,1630954769.0
terrace,TR,54.5163,-128.6035,13.95,3.6,1018.0,94.0,90.0,1630954996.0
serenje,TR,-13.2325,30.2352,18.57,2.41,1017.0,37.0,5.0,1630954997.0
punta arenas,TR,-53.15,-70.9167,8.96,1.81,1017.0,74.0,79.0,1630954811.0
vaini,TR,-21.2,-175.2,18.09,0.51,1015.0,94.0,20.0,1630955000.0
nyurba,TR,63.2842,118.3319,4.67,2.64,1018.0,87.0,63.0,1630955001.0
pingyi,TR,35.5006,117.6308,18.79,3.28,1014.0,94.0,100.0,1630955003.0
cape town,TR,-33.9258,18.4232,10.78,0.89,1030.0,81.0,20.0,1630954719.0
manosque,TR,43.8288,5.7869,21.84,0.34,1022.0,88.0,9.0,1630955005.0
east london,TR,-33.0153,27.9116,13.77,3.2,1028.0,89.0,100.0,1630955007.0
ushuaia,TR,-54.8,-68.3,9.81,6.69,1014.0,62.0,75.0,1630955008.0
mahebourg,TR,-20.4081,57.7,21.25,8.46,1025.0,70.0,92.0,1630955010.0
bulgan,TR,48.8125,103.5347,5.22,1.66,1014.0,88.0,11.0,1630955011.0
vondrozo,TR,-22.8167,47.2833,14.57,1.22,1025.0,93.0,29.0,1630955013.0
linares,TR,-35.85,-71.6,14.18,2.26,1020.0,52.0,44.0,1630954736.0
abrau-dyurso,TR,44.69,37.59,10.7,5.38,1023.0,53.0,0.0,1630955015.0
perth,TR,-31.9333,115.8333,12.4,3.6,1020.0,62.0,0.0,1630954830.0
togur,TR,58.3631,82.8265,11.64,3.5,1019.0,75.0,55.0,1630955018.0
yellowknife,TR,62.456,-114.3525,16.29,4.63,998.0,100.0,90.0,1630954735.0
tucurui,TR,-3.7661,-49.6725,36.73,2.38,1007.0,30.0,62.0,1630955021.0
victoria,TR,22.2855,114.1577,29.2,1.34,1010.0,81.0,100.0,1630954925.0
katsuura,TR,35.1333,140.3,19.06,6.59,1016.0,77.0,36.0,1630955024.0
tessalit,TR,20.1986,1.0114,36.19,6.7,1009.0,8.0,5.0,1630955026.0
nanortalik,TR,60.1432,-45.2371,6.75,3.66,1007.0,76.0,0.0,1630955027.0
artigas,TR,-30.4,-56.4667,22.44,6.87,1013.0,55.0,29.0,1630955028.0
palana,TR,59.1167,159.9667,4.22,4.81,1007.0,74.0,66.0,1630955030.0
constitucion,TR,-35.3333,-72.4167,12.46,4.5,1021.0,70.0,85.0,1630954937.0
sulina,TR,45.1559,29.6536,15.78,3.94,1027.0,48.0,0.0,1630955032.0
marsa matruh,TR,31.3525,27.2453,25.87,3.3,1014.0,63.0,0.0,1630955033.0
sitka,TR,57.0531,-135.33,15.94,1.54,1016.0,77.0,75.0,1630955035.0
reconquista,TR,-29.15,-59.65,20.08,5.71,1009.0,69.0,100.0,1630954821.0
nador,TR,35.174,-2.9287,24.14,3.09,1017.0,88.0,40.0,1630954989.0
bluff,TR,-46.6,168.3333,7.67,4.62,995.0,92.0,100.0,1630955039.0
sarangani,TR,5.4033,125.4636,28.28,6.81,1008.0,76.0,73.0,1630955040.0
butaritari,TR,3.0707,172.7902,28.59,5.85,1009.0,72.0,100.0,1630955041.0
new norfolk,TR,-42.7826,147.0587,8.78,5.81,1013.0,62.0,100.0,1630955043.0
carnarvon,TR,-24.8667,113.6333,12.04,0.51,1019.0,82.0,13.0,1630955044.0
manzhouli,TR,49.6,117.4333,7.5,1.43,1013.0,77.0,45.0,1630955045.0
provideniya,TR,64.3833,-173.3,3.44,4.54,1001.0,98.0,100.0,1630955047.0
dukat,TR,62.55,155.55,1.96,2.78,1010.0,81.0,100.0,1630955048.0
hobart,TR,-42.8794,147.3294,10.09,4.47,1011.0,62.0,75.0,1630954846.0
pevek,TR,69.7008,170.3133,-1.0,3.35,993.0,85.0,99.0,1630955051.0
vao,TR,-22.6667,167.4833,20.59,4.63,1015.0,79.0,15.0,1630955052.0
busselton,TR,-33.65,115.3333,12.8,4.26,1019.0,69.0,0.0,1630955054.0
saskylakh,TR,71.9167,114.0833,6.15,2.91,1019.0,95.0,91.0,1630955055.0
jiexiu,TR,37.0244,111.9125,16.12,0.99,1018.0,49.0,0.0,1630955056.0
idenao,TR,4.2475,9.0047,24.28,1.25,1016.0,91.0,88.0,1630955058.0
nikolskoye,TR,59.7035,30.7861,10.94,2.42,1018.0,96.0,100.0,1630955059.0
saint george,TR,37.1041,-113.5841,36.07,0.89,1015.0,19.0,0.0,1630954813.0
hilo,TR,19.7297,-155.09,25.88,0.89,1017.0,81.0,1.0,1630954966.0
taoudenni,TR,22.6783,-3.9836,40.74,3.18,1008.0,8.0,5.0,1630955063.0
port alfred,TR,-33.5906,26.891,14.02,3.82,1028.0,84.0,100.0,1630955064.0
qaanaaq,TR,77.484,-69.3632,-7.09,4.11,1007.0,73.0,21.0,1630955066.0
aswan,TR,24.0934,32.907,34.77,7.13,1009.0,17.0,94.0,1630955067.0
havoysund,TR,70.9963,24.6622,6.49,3.72,1012.0,80.0,100.0,1630955068.0
grand gaube,TR,-20.0064,57.6608,21.32,4.02,1024.0,62.0,90.0,1630955070.0
georgetown,TR,5.4112,100.3354,27.72,0.51,1011.0,79.0,20.0,1630954858.0
gamba,TR,-2.65,10.0,23.81,3.26,1014.0,82.0,84.0,1630955072.0
kalisz,TR,51.7611,18.091,12.07,3.09,1025.0,53.0,100.0,1630954832.0
khatanga,TR,71.9667,102.5,11.29,3.54,1015.0,67.0,100.0,1630955076.0
castro,TR,-24.7911,-50.0119,28.49,0.86,1012.0,24.0,0.0,1630954889.0
sibolga,TR,1.7427,98.7792,24.22,1.3,1011.0,90.0,99.0,1630955078.0
moquegua,TR,-17.1956,-70.9353,21.61,3.18,1013.0,35.0,23.0,1630955080.0
airai,TR,-8.9266,125.4092,13.74,1.78,1014.0,91.0,47.0,1630955081.0
ponta do sol,TR,32.6667,-17.1,25.01,3.78,1016.0,75.0,40.0,1630955083.0
paamiut,TR,61.994,-49.6678,5.56,0.66,1009.0,68.0,100.0,1630955084.0
hermanus,TR,-34.4187,19.2345,6.56,3.49,1031.0,71.0,10.0,1630955086.0
kalmunai,TR,7.4167,81.8167,27.05,2.45,1008.0,73.0,100.0,1630955087.0
bethel,TR,41.3712,-73.414,26.09,1.79,1007.0,56.0,20.0,1630955088.0
atuona,TR,-9.8,-139.0333,25.89,8.87,1016.0,70.0,44.0,1630955090.0
matara,TR,5.9485,80.5353,25.32,4.57,1010.0,91.0,100.0,1630955091.0
vangaindrano,TR,-23.35,47.6,18.57,2.3,1024.0,83.0,0.0,1630954988.0
nouadhibou,TR,20.931,-17.0347,22.22,10.84,1012.0,83.0,2.0,1630955096.0
jamestown,TR,42.097,-79.2353,20.72,2.68,1012.0,54.0,40.0,1630955097.0
hamilton,TR,39.1834,-84.5333,28.57,0.45,1015.0,45.0,20.0,1630955030.0
acajutla,TR,13.5928,-89.8275,34.33,4.23,1011.0,74.0,100.0,1630955100.0
skibbereen,TR,51.55,-9.2667,16.89,2.91,1022.0,95.0,0.0,1630955103.0
albany,TR,42.6001,-73.9662,22.19,6.16,1005.0,60.0,17.0,1630955104.0
saint-philippe,TR,-21.3585,55.7679,18.62,7.41,1026.0,77.0,49.0,1630955106.0
swan hill,TR,-35.3378,143.5544,4.55,3.19,1032.0,96.0,5.0,1630955107.0
tank,TR,32.2217,70.3793,35.95,3.37,1003.0,34.0,0.0,1630954878.0
torbat-e jam,TR,35.244,60.6225,24.94,6.47,1013.0,20.0,0.0,1630955110.0
san policarpo,TR,12.1791,125.5072,26.27,9.52,1005.0,89.0,100.0,1630955112.0
road town,TR,18.4167,-64.6167,30.67,6.09,1013.0,77.0,7.0,1630954891.0
grass valley,TR,39.2191,-121.0611,32.54,0.45,1016.0,12.0,1.0,1630955116.0
tiksi,TR,71.6872,128.8694,3.97,5.41,1018.0,80.0,100.0,1630955117.0
nicoya,TR,10.1483,-85.452,29.75,0.93,1010.0,74.0,100.0,1630955119.0
catarama,TR,-1.5833,-79.4667,25.12,0.58,1012.0,78.0,100.0,1630955124.0
mataura,TR,-46.1927,168.8643,7.49,0.5,995.0,99.0,100.0,1630955126.0
cayenne,TR,4.9333,-52.3333,28.94,2.24,1011.0,79.0,0.0,1630955127.0
gallup,TR,35.5281,-108.7426,28.27,1.54,1030.0,16.0,1.0,1630955128.0
arraial do cabo,TR,-22.9661,-42.0278,22.92,6.17,1015.0,88.0,75.0,1630955130.0
nanakuli,TR,21.3906,-158.1547,27.52,4.12,1017.0,63.0,1.0,1630955131.0
kouango,TR,4.9934,19.9619,21.7,2.51,1014.0,98.0,100.0,1630955132.0
kapaa,TR,22.0752,-159.319,26.61,0.45,1017.0,70.0,20.0,1630955135.0
upernavik,TR,72.7868,-56.1549,0.09,5.1,1005.0,70.0,67.0,1630955137.0
atherton,TR,53.5237,-2.4935,20.2,1.34,1022.0,77.0,99.0,1630954850.0
jumla,TR,29.2747,82.1838,17.24,0.83,1016.0,95.0,88.0,1630955139.0
cabo san lucas,TR,22.8909,-109.9124,31.98,2.68,959.0,64.0,20.0,1630955141.0
mar del plata,TR,-38.0023,-57.5575,14.01,4.12,1021.0,82.0,75.0,1630955142.0
port elizabeth,TR,-33.918,25.5701,12.83,2.13,1029.0,79.0,62.0,1630955144.0
bambous virieux,TR,-20.3428,57.7575,21.23,8.45,1024.0,69.0,99.0,1630955146.0
ennis,TR,52.8436,-8.9864,21.96,2.06,1021.0,73.0,20.0,1630955147.0
sioux lookout,TR,50.1001,-91.917,19.39,3.22,1006.0,43.0,98.0,1630955149.0
christchurch,TR,-43.5333,172.6333,13.2,6.17,998.0,58.0,75.0,1630954898.0
shenzhen,TR,22.5455,114.0683,28.71,2.16,1010.0,86.0,100.0,1630955154.0
kenai,TR,60.5544,-151.2583,12.38,0.0,1012.0,72.0,1.0,1630955155.0
wanning,TR,18.8003,110.3967,26.03,1.75,1008.0,89.0,100.0,1630955156.0
santa isabel,TR,-23.3156,-46.2214,21.91,5.45,1015.0,56.0,1.0,1630955055.0
mehamn,TR,71.0357,27.8492,3.42,1.98,1013.0,78.0,48.0,1630955160.0
maua,TR,-23.6678,-46.4614,20.91,4.42,1017.0,78.0,62.0,1630955161.0
les cayes,TR,18.2,-73.75,30.95,3.99,1013.0,61.0,0.0,1630955163.0
vaitape,TR,-16.5167,-151.75,25.92,6.7,1017.0,75.0,1.0,1630955165.0
chumikan,TR,54.7183,135.315,10.8,2.12,1018.0,73.0,54.0,1630955167.0
saint-pierre,TR,-21.3393,55.4781,18.67,3.09,1024.0,74.0,0.0,1630955168.0
sabang,TR,5.8933,95.3214,28.03,2.66,1010.0,72.0,22.0,1630955169.0
broken hill,TR,-31.95,141.4333,7.66,4.27,1033.0,82.0,0.0,1630955171.0
pozoblanco,TR,38.3791,-4.8483,29.32,3.12,1015.0,27.0,99.0,1630955173.0
naze,TR,28.3667,129.4833,25.34,2.85,1012.0,86.0,93.0,1630955175.0
sonegaon,TR,20.65,78.6833,26.28,2.99,1002.0,85.0,100.0,1630955177.0
kruisfontein,TR,-34.0033,24.7314,11.6,3.4,1030.0,83.0,12.0,1630955178.0
kamwenge,TR,0.1866,30.4539,18.83,1.04,1014.0,83.0,100.0,1630955179.0
narsaq,TR,60.9167,-46.05,12.12,3.29,1008.0,62.0,0.0,1630955181.0
yerkoy,TR,39.6381,34.4672,14.71,3.38,1019.0,62.0,2.0,1630955182.0
songjianghe,TR,42.1859,127.479,10.85,1.58,1017.0,96.0,100.0,1630955184.0
caravelas,TR,-17.7125,-39.2481,26.62,4.6,1013.0,71.0,0.0,1630955185.0
richards bay,TR,-28.783,32.0377,18.97,4.39,1022.0,89.0,100.0,1630955187.0
port macquarie,TR,-31.4333,152.9167,10.13,4.15,1027.0,83.0,2.0,1630954915.0
nerang,TR,-27.9833,153.3333,10.88,3.79,1027.0,74.0,0.0,1630955191.0
husavik,TR,66.0449,-17.3389,12.06,1.66,997.0,74.0,96.0,1630955192.0
esperance,TR,-33.8667,121.9,14.16,8.29,1025.0,41.0,0.0,1630955193.0
padang,TR,-0.9492,100.3543,24.03,2.68,1012.0,91.0,100.0,1630954910.0
gornyy,TR,55.1153,83.9059,13.22,3.71,1017.0,92.0,75.0,1630955196.0
ilulissat,TR,69.2167,-51.1,4.01,1.03,1003.0,56.0,75.0,1630955198.0
ancud,TR,-41.8697,-73.8203,9.63,5.2,1018.0,74.0,95.0,1630954916.0
novoilinsk,TR,51.6829,108.7143,3.6,1.62,1016.0,94.0,100.0,1630955200.0
at-bashi,TR,41.1702,75.8106,14.27,0.52,1019.0,36.0,0.0,1630955202.0
tilichiki,TR,60.4667,166.1,1.46,2.08,1004.0,71.0,100.0,1630955203.0
maamba,TR,-17.3667,27.15,22.65,1.87,1015.0,31.0,0.0,1630955204.0
kahului,TR,20.8947,-156.47,26.02,7.2,1017.0,69.0,40.0,1630955206.0
saldanha,TR,-33.0117,17.9442,12.92,10.11,1029.0,71.0,0.0,1630955207.0
fortuna,TR,40.5982,-124.1573,20.7,1.34,1015.0,72.0,1.0,1630955209.0
bengkulu,TR,-3.8004,102.2655,23.16,2.88,1011.0,96.0,100.0,1630955210.0
moosomin,TR,50.1333,-101.6677,23.51,6.63,1004.0,28.0,100.0,1630955211.0
bronnoysund,TR,65.4625,12.1997,12.0,7.2,1014.0,100.0,75.0,1630954992.0
jerez,TR,14.1,-89.75,28.49,1.49,1011.0,60.0,65.0,1630955215.0
ambilobe,TR,-13.2,49.05,24.49,2.79,1018.0,58.0,100.0,1630955216.0
sembe,TR,1.6481,14.5806,21.68,0.08,1014.0,98.0,100.0,1630955218.0
qaqortoq,TR,60.7167,-46.0333,12.28,4.65,1008.0,72.0,0.0,1630955219.0
saint-joseph,TR,-21.3667,55.6167,18.06,7.25,1026.0,75.0,20.0,1630955221.0
quimper,TR,48.0,-4.1,26.98,0.51,1019.0,57.0,0.0,1630955223.0
cancun,TR,21.1743,-86.8466,30.96,4.12,1015.0,66.0,75.0,1630954971.0
yaan,TR,7.3833,8.5667,23.09,2.26,1013.0,91.0,100.0,1630955226.0
ribeira grande,TR,38.5167,-28.7,22.22,2.06,1016.0,64.0,40.0,1630955227.0
ludvika,TR,60.1496,15.1878,13.57,2.38,1019.0,74.0,100.0,1630955229.0
tomatlan,TR,19.9333,-105.25,29.18,1.92,1012.0,72.0,100.0,1630955230.0
lebu,TR,-37.6167,-73.65,10.5,6.62,1018.0,86.0,94.0,1630955231.0
bitung,TR,1.4451,125.1824,24.47,5.13,1009.0,84.0,100.0,1630955233.0
hithadhoo,TR,-0.6,73.0833,28.15,4.29,1012.0,73.0,100.0,1630955234.0
afsin,TR,38.2477,36.914,18.44,2.3,1014.0,39.0,3.0,1630955235.0
tecoanapa,TR,16.5167,-98.75,30.61,3.84,1012.0,65.0,95.0,1630955237.0
hasaki,TR,35.7333,140.8333,16.22,8.65,1016.0,68.0,39.0,1630955238.0
luderitz,TR,-26.6481,15.1594,13.46,11.47,1022.0,53.0,0.0,1630955239.0
krasnoselkup,TR,65.7,82.4667,7.22,5.1,1014.0,81.0,5.0,1630955242.0
touros,TR,-5.1989,-35.4608,28.5,7.71,1012.0,61.0,62.0,1630955243.0
necochea,TR,-38.5473,-58.7368,14.46,5.46,1020.0,65.0,100.0,1630955244.0
westport,TR,41.1415,-73.3579,27.28,1.34,1006.0,56.0,1.0,1630955247.0
mukhen,TR,48.1,136.1,14.99,1.82,1018.0,84.0,93.0,1630955248.0
nangwa,TR,-4.4667,35.45,15.1,3.31,1018.0,70.0,88.0,1630955250.0
aban,TR,56.67,96.06,6.42,0.19,1018.0,68.0,100.0,1630955251.0
kamenka,TR,51.3223,42.7678,7.95,0.73,1025.0,54.0,77.0,1630955253.0
xinmin,TR,41.9908,122.8253,17.14,0.66,1015.0,96.0,100.0,1630955254.0
alofi,TR,-19.0595,-169.9187,22.94,1.54,1015.0,100.0,40.0,1630955255.0
vardo,TR,70.3705,31.1107,3.99,6.69,1011.0,75.0,75.0,1630955257.0
zhanaozen,TR,43.3,52.8,25.2,3.44,1014.0,24.0,5.0,1630955258.0
mistelbach,TR,48.57,16.5767,16.14,1.3,1025.0,74.0,1.0,1630955260.0
klaksvik,TR,62.2266,-6.589,12.51,8.84,1008.0,94.0,100.0,1630955261.0
norman wells,TR,65.282,-126.8329,13.59,4.81,1004.0,85.0,100.0,1630955263.0
carutapera,TR,-1.195,-46.02,29.01,4.34,1011.0,65.0,17.0,1630955264.0
lagoa,TR,39.05,-27.9833,20.29,5.99,1017.0,77.0,90.0,1630955266.0
coquimbo,TR,-29.9533,-71.3436,17.85,6.17,1019.0,59.0,0.0,1630955268.0
lang son,TR,21.8333,106.7333,24.16,1.01,1011.0,92.0,19.0,1630955270.0
port blair,TR,11.6667,92.75,26.94,5.01,1009.0,85.0,100.0,1630955272.0
dikson,TR,73.5069,80.5464,9.03,8.89,1003.0,76.0,100.0,1630955273.0
hanzhong,TR,33.0728,107.0303,17.57,0.52,1020.0,93.0,100.0,1630955274.0
asau,TR,46.4333,26.4,10.51,0.78,1028.0,65.0,48.0,1630955276.0
thompson,TR,55.7435,-97.8558,21.48,3.83,1001.0,46.0,19.0,1630955277.0
bredasdorp,TR,-34.5322,20.0403,6.27,0.39,1031.0,79.0,1.0,1630955278.0
punta alta,TR,-38.8759,-62.0736,18.07,5.01,1017.0,45.0,100.0,1630955280.0
novobirilyussy,TR,56.9514,90.6661,5.82,1.83,1018.0,63.0,0.0,1630955281.0
dingle,TR,10.9995,122.6711,24.65,0.12,1007.0,90.0,100.0,1630955283.0
olinda,TR,-8.0089,-34.8553,25.85,4.63,1012.0,65.0,40.0,1630955060.0
geraldton,TR,-28.7667,114.6,9.23,6.17,1020.0,71.0,0.0,1630955285.0
mbandaka,TR,0.0487,18.2603,20.73,2.05,1013.0,98.0,100.0,1630955287.0
puerto ayora,TR,-0.7393,-90.3518,20.52,4.53,1014.0,78.0,100.0,1630955288.0
sao raimundo das mangabeiras,TR,-7.0219,-45.4811,37.55,2.62,1007.0,21.0,84.0,1630955289.0
kavieng,TR,-2.5744,150.7967,27.97,6.92,1007.0,72.0,100.0,1630955291.0
winnemucca,TR,40.973,-117.7357,31.03,2.06,1022.0,8.0,1.0,1630955292.0
bang saphan,TR,11.2126,99.5117,25.24,2.63,1009.0,88.0,100.0,1630955293.0
quatre cocos,TR,-20.2078,57.7625,21.16,8.49,1024.0,68.0,99.0,1630955295.0
kiunga,TR,-6.1219,141.2906,22.08,2.11,1010.0,99.0,100.0,1630955296.0
inirida,TR,3.8653,-67.9239,28.69,1.3,1009.0,72.0,95.0,1630955298.0
alice springs,TR,-23.7,133.8833,6.75,3.6,1028.0,65.0,0.0,1630955299.0
adrar,TR,20.5022,-10.0711,38.95,5.31,1008.0,8.0,1.0,1630955300.0
saint anthony,TR,45.0205,-93.218,26.03,1.34,1012.0,44.0,1.0,1630955302.0
comodoro rivadavia,TR,-45.8667,-67.5,13.92,3.09,1018.0,62.0,0.0,1630955303.0
hofn,TR,64.2539,-15.2082,11.01,2.57,996.0,93.0,90.0,1630955304.0
zhiryatino,TR,53.2228,33.7306,4.18,2.22,1028.0,75.0,6.0,1630955306.0
parian dakula,TR,5.5567,120.7719,28.39,2.81,1008.0,71.0,94.0,1630955307.0
manaure,TR,11.7751,-72.4445,32.71,6.41,1008.0,54.0,96.0,1630955309.0
sorland,TR,67.667,12.6934,11.92,8.68,1010.0,97.0,100.0,1630955310.0
salinopolis,TR,-0.6136,-47.3561,28.55,5.06,1011.0,69.0,65.0,1630955131.0
souillac,TR,-20.5167,57.5167,21.31,7.98,1025.0,71.0,78.0,1630955312.0
kabala,TR,9.5833,-11.55,22.25,0.7,1012.0,94.0,100.0,1630955314.0
oyek,TR,52.5861,104.4556,6.21,1.16,1018.0,85.0,99.0,1630955316.0
cajamarca,TR,-7.1638,-78.5003,17.04,2.06,1028.0,55.0,75.0,1630955318.0
flin flon,TR,54.7682,-101.865,22.1,4.4,1001.0,39.0,83.0,1630955319.0
solnechnyy,TR,50.7214,136.6319,12.58,0.57,1018.0,96.0,100.0,1630955320.0
sherbakul,TR,54.6316,72.3963,10.82,2.19,1021.0,43.0,13.0,1630955322.0
neuquen,TR,-38.9516,-68.0591,19.2,5.23,1013.0,28.0,3.0,1630955324.0
saint-augustin,TR,51.226,-58.6502,14.92,5.51,1013.0,69.0,97.0,1630955326.0
clyde river,TR,70.4692,-68.5914,0.72,0.8,1008.0,65.0,74.0,1630955327.0
kronshagen,TR,54.3433,10.0994,15.16,2.06,1024.0,88.0,75.0,1630955328.0
lipin bor,TR,60.2622,37.9763,6.71,4.28,1017.0,75.0,55.0,1630955330.0
kargil,TR,34.5667,76.1,17.03,2.45,1011.0,44.0,0.0,1630955331.0
labuhan,TR,-6.8844,112.2051,25.24,3.16,1011.0,82.0,91.0,1630955332.0
ulladulla,TR,-35.35,150.4667,5.61,2.45,1024.0,61.0,0.0,1630955334.0
kisaran,TR,2.9845,99.6158,24.21,0.92,1010.0,91.0,95.0,1630955335.0
antalaha,TR,-14.9003,50.2788,20.95,4.34,1021.0,92.0,94.0,1630955337.0
mayor pablo lagerenza,TR,-19.9309,-60.7718,41.21,7.22,1001.0,17.0,27.0,1630955338.0
marau,TR,-28.4492,-52.2,19.9,2.91,1013.0,67.0,89.0,1630955340.0
petropavlovsk-kamchatskiy,TR,53.0452,158.6483,5.33,1.0,1001.0,100.0,75.0,1630955341.0
kaeo,TR,-35.1,173.7833,15.18,5.53,1014.0,94.0,100.0,1630955342.0
krasnokamensk,TR,50.0979,118.0369,6.46,0.57,1014.0,71.0,4.0,1630955344.0
atocha,TR,-20.9333,-66.2333,18.46,10.79,1006.0,19.0,39.0,1630955345.0
kaspiyskiy,TR,45.3929,47.3707,16.35,2.8,1023.0,64.0,100.0,1630955347.0
san patricio,TR,28.017,-97.5169,34.53,2.68,1013.0,39.0,11.0,1630955349.0
tasiilaq,TR,65.6145,-37.6368,6.09,1.91,1003.0,90.0,95.0,1630955351.0
pemba,TR,-12.974,40.5178,24.45,5.86,1018.0,70.0,6.0,1630955352.0
porbandar,TR,21.6422,69.6093,27.37,3.9,1005.0,88.0,100.0,1630955353.0
ahipara,TR,-35.1667,173.1667,13.81,5.23,1013.0,92.0,100.0,1630955355.0
severo-kurilsk,TR,50.6789,156.125,9.32,7.31,1008.0,78.0,65.0,1630955356.0
san jeronimo,TR,-11.9472,-75.2829,12.84,3.15,1017.0,68.0,99.0,1630955359.0
tuktoyaktuk,TR,69.4541,-133.0374,5.04,9.64,1004.0,95.0,100.0,1630955360.0
thinadhoo,TR,0.5333,72.9333,28.36,5.32,1012.0,72.0,100.0,1630955361.0
dhankuta,TR,26.9833,87.3333,19.81,1.97,1011.0,92.0,83.0,1630955363.0
montepuez,TR,-13.1256,38.9997,20.93,3.57,1018.0,70.0,0.0,1630955364.0
mildura,TR,-34.2,142.15,6.15,3.79,1033.0,89.0,0.0,1630955366.0
jining,TR,35.405,116.5814,17.69,3.81,1015.0,98.0,99.0,1630955368.0
dunedin,TR,-45.8742,170.5036,9.33,1.72,994.0,80.0,60.0,1630955369.0
lavrentiya,TR,65.5833,-171.0,1.54,1.02,1003.0,97.0,100.0,1630955371.0
teya,TR,60.3778,92.6267,6.21,0.73,1020.0,86.0,9.0,1630955372.0
itarema,TR,-2.9248,-39.9167,28.33,8.77,1010.0,64.0,33.0,1630955374.0
kachug,TR,53.9606,105.8817,0.1,1.73,1019.0,95.0,23.0,1630955375.0
lima,TR,-12.0432,-77.0282,17.14,5.14,1015.0,72.0,75.0,1630955304.0
coxim,TR,-18.5067,-54.76,40.23,3.72,1005.0,14.0,99.0,1630955378.0
coahuayana,TR,18.7333,-103.6833,27.71,1.0,1012.0,67.0,100.0,1630955379.0
kaitangata,TR,-46.2817,169.8464,8.37,1.19,994.0,95.0,100.0,1630955380.0
rivers,TR,50.0308,-100.2403,21.53,7.62,1002.0,35.0,100.0,1630955382.0
bud,TR,39.447,-86.1758,28.3,5.19,1014.0,49.0,0.0,1630955383.0
college,TR,64.8569,-147.8028,6.94,2.57,1013.0,81.0,75.0,1630955385.0
mahajanga,TR,-15.7167,46.3167,22.01,2.06,1019.0,83.0,20.0,1630955387.0
srednekolymsk,TR,67.45,153.6833,4.4,6.7,1004.0,87.0,100.0,1630955388.0
fairbanks,TR,64.8378,-147.7164,6.98,0.0,1012.0,80.0,20.0,1630955229.0
rexburg,TR,43.826,-111.7897,25.92,4.63,1022.0,21.0,1.0,1630955237.0
ajdabiya,TR,30.7554,20.2263,26.99,7.14,1013.0,63.0,0.0,1630955392.0
vila franca do campo,TR,37.7167,-25.4333,22.23,3.56,1015.0,83.0,59.0,1630955393.0
makakilo city,TR,21.3469,-158.0858,26.74,4.12,1017.0,62.0,1.0,1630955395.0
penzance,TR,50.1186,-5.5371,17.9,4.06,1021.0,85.0,61.0,1630955396.0
issenye,TR,-2.0,34.3333,22.08,2.39,1014.0,65.0,100.0,1630955397.0
hami,TR,42.8,93.45,24.95,1.5,1011.0,19.0,64.0,1630955399.0
chuy,TR,-33.6971,-53.4616,15.83,5.82,1020.0,78.0,65.0,1630955400.0
eyl,TR,7.9803,49.8164,25.42,9.88,1011.0,79.0,73.0,1630955402.0
oxapampa,TR,-10.5775,-75.4017,18.86,0.9,1016.0,74.0,98.0,1630955404.0
merauke,TR,-8.4667,140.3333,24.92,7.28,1011.0,80.0,100.0,1630955405.0
humaita,TR,-7.5061,-63.0208,34.92,2.36,1008.0,36.0,100.0,1630955407.0
caraballeda,TR,10.6112,-66.8522,30.04,2.57,1012.0,74.0,40.0,1630955408.0
iqaluit,TR,63.7506,-68.5145,7.55,2.12,1006.0,72.0,99.0,1630955410.0
namibe,TR,-15.1961,12.1522,17.61,1.36,1015.0,86.0,76.0,1630955411.0
matamoros,TR,25.5333,-103.25,27.84,0.0,1020.0,48.0,75.0,1630955412.0
margate,TR,51.3813,1.3862,19.21,2.88,1023.0,76.0,38.0,1630955414.0
linxia,TR,35.6003,103.2064,11.88,2.09,1021.0,67.0,0.0,1630955415.0
baixa grande,TR,-11.9597,-40.1681,33.69,3.77,1010.0,26.0,3.0,1630955416.0
kasongo,TR,-4.45,26.6667,23.91,1.7,1011.0,69.0,80.0,1630955418.0
katherine,TR,-14.4667,132.2667,19.18,4.63,1016.0,30.0,6.0,1630955419.0
sao filipe,TR,14.8961,-24.4956,26.97,2.87,1013.0,79.0,44.0,1630955420.0
paita,TR,-5.0892,-81.1144,20.62,5.37,1012.0,78.0,100.0,1630955422.0
shache,TR,38.4167,77.2406,23.1,1.62,1014.0,26.0,0.0,1630955423.0
mapiripan,TR,2.8892,-72.1256,28.91,3.06,1010.0,64.0,24.0,1630955425.0
buala,TR,-8.145,159.5921,25.73,2.5,1010.0,82.0,69.0,1630955426.0
puri,TR,19.8,85.85,27.29,8.27,1001.0,81.0,100.0,1630955427.0
abu samrah,TR,35.3029,37.1841,25.04,4.81,1011.0,47.0,0.0,1630955429.0
quelimane,TR,-17.8786,36.8883,23.52,4.45,1017.0,81.0,0.0,1630955430.0
harper,TR,4.375,-7.7169,25.13,4.43,1013.0,85.0,80.0,1630955431.0
samarai,TR,-10.6167,150.6667,25.89,7.33,1011.0,71.0,73.0,1630955433.0
yumen,TR,40.2833,97.2,19.41,3.42,1015.0,19.0,0.0,1630955435.0
campo grande,TR,-20.4428,-54.6464,34.75,2.57,1011.0,29.0,75.0,1630955437.0
kotido,TR,2.9806,34.1331,23.31,3.13,1013.0,52.0,15.0,1630955357.0
gacko,TR,43.1672,18.5353,12.01,2.7,1024.0,66.0,27.0,1630955439.0
namatanai,TR,-3.6667,152.4333,25.33,3.3,1008.0,77.0,100.0,1630955440.0
xichang,TR,27.8964,102.2634,15.7,1.2,1022.0,89.0,84.0,1630955442.0
sao miguel do araguaia,TR,-13.275,-50.1628,39.21,2.49,1007.0,12.0,0.0,1630955443.0
barrow,TR,71.2906,-156.7887,3.01,4.63,1007.0,75.0,90.0,1630955442.0
karla,TR,59.3723,24.9275,12.96,4.63,1019.0,86.0,20.0,1630955446.0
vic,TR,41.9301,2.2549,22.01,1.51,1023.0,93.0,10.0,1630955447.0
graham,TR,47.0529,-122.2943,20.03,0.0,1021.0,59.0,75.0,1630955449.0
cap malheureux,TR,-19.9842,57.6142,21.37,3.13,1024.0,63.0,88.0,1630955450.0
sao joao da barra,TR,-21.6403,-41.0511,26.05,9.54,1014.0,71.0,0.0,1630955452.0
muzhi,TR,65.3667,64.6667,6.6,8.38,1004.0,75.0,100.0,1630955453.0
menongue,TR,-14.6585,17.691,21.98,1.76,1012.0,24.0,86.0,1630955454.0
nhulunbuy,TR,-12.2333,136.7667,25.34,6.69,1013.0,65.0,75.0,1630955456.0
kununurra,TR,-15.7667,128.7333,20.99,4.12,1017.0,30.0,6.0,1630955457.0
keti bandar,TR,24.1447,67.4497,27.45,5.01,1005.0,84.0,14.0,1630955458.0
lasa,TR,46.6166,10.7002,17.02,0.57,1026.0,85.0,39.0,1630955460.0
sangar,TR,63.9242,127.4739,4.71,0.48,1020.0,74.0,88.0,1630955461.0
chokurdakh,TR,70.6333,147.9167,0.39,5.33,1008.0,94.0,100.0,1630955463.0
mangrol,TR,21.1167,70.1167,26.98,4.12,1005.0,89.0,100.0,1630955464.0
stokmarknes,TR,68.5646,14.9108,10.94,7.2,1010.0,87.0,75.0,1630955466.0
issa,TR,53.8705,44.8578,6.4,2.88,1023.0,68.0,54.0,1630955467.0
baker city,TR,44.7749,-117.8344,26.02,3.09,1021.0,37.0,1.0,1630955469.0
blackfoot,TR,43.1905,-112.345,28.66,4.28,1013.0,8.0,0.0,1630955470.0
ewa beach,TR,21.3156,-158.0072,27.5,4.12,1017.0,62.0,1.0,1630955471.0
yar-sale,TR,66.8333,70.8333,6.45,8.32,1005.0,77.0,99.0,1630955473.0
cidreira,TR,-30.1811,-50.2056,18.09,7.73,1018.0,83.0,64.0,1630955474.0
faanui,TR,-16.4833,-151.75,25.9,6.67,1017.0,75.0,1.0,1630955475.0
maltahohe,TR,-24.8333,16.9833,13.61,6.87,1021.0,29.0,0.0,1630955477.0
avarua,TR,-21.2078,-159.775,23.03,6.17,1018.0,78.0,75.0,1630955223.0
qazanbulaq,TR,40.6192,46.6519,24.5,5.2,1015.0,59.0,17.0,1630955479.0
union,TR,40.6334,-74.2663,28.14,6.69,1008.0,45.0,40.0,1630955362.0
basco,TR,20.4487,121.9702,29.2,5.87,1010.0,76.0,29.0,1630955482.0
saint-ambroise,TR,48.5501,-71.3324,18.14,2.59,1001.0,83.0,100.0,1630955483.0
iquitos,TR,-3.7481,-73.2472,23.85,0.75,1011.0,95.0,100.0,1630955484.0
magistralnyy,TR,56.1725,107.4458,0.54,1.86,1019.0,88.0,44.0,1630955486.0
inuvik,TR,68.3499,-133.7218,4.42,8.05,1006.0,91.0,100.0,1630955238.0
cuamba,TR,-14.8031,36.5372,25.02,1.14,1016.0,30.0,36.0,1630955488.0
palu,TR,-0.8917,119.8707,23.98,0.7,1011.0,95.0,100.0,1630955490.0
warrington,TR,53.3925,-2.5802,20.19,0.89,1022.0,78.0,0.0,1630955491.0
atar,TR,20.5169,-13.0499,41.36,2.88,1007.0,11.0,67.0,1630955492.0
sisimiut,TR,66.9395,-53.6735,6.55,5.85,1005.0,69.0,100.0,1630955494.0
palmer,TR,42.1584,-72.3287,26.01,0.89,1006.0,47.0,40.0,1630955495.0
chandler,TR,33.3062,-111.8412,36.15,0.45,1013.0,33.0,1.0,1630955496.0
prachuap khiri khan,TR,12.2167,99.75,22.93,2.02,1009.0,89.0,100.0,1630955498.0
northam,TR,51.0333,-4.2167,20.6,1.49,1022.0,88.0,10.0,1630955499.0
jalu,TR,29.0331,21.5482,33.34,6.37,1011.0,27.0,3.0,1630955501.0
rocha,TR,-34.4833,-54.3333,16.44,6.24,1020.0,73.0,60.0,1630955346.0
beloha,TR,-25.1667,45.05,21.25,3.19,1019.0,59.0,0.0,1630955239.0
karratha,TR,-20.7377,116.8463,21.14,6.59,1019.0,28.0,15.0,1630955504.0
nautla,TR,20.2167,-96.7833,29.12,3.81,1012.0,71.0,100.0,1630955505.0
codrington,TR,-38.2667,141.9667,11.04,6.02,1030.0,78.0,97.0,1630955507.0
verkhoyansk,TR,67.5447,133.385,10.73,1.13,1015.0,70.0,74.0,1630955508.0
okhotsk,TR,59.3833,143.3,11.36,3.76,1013.0,51.0,6.0,1630955510.0
bilma,TR,18.6853,12.9164,34.7,6.16,1010.0,28.0,6.0,1630955511.0
salalah,TR,17.0151,54.0924,26.05,1.54,1007.0,100.0,90.0,1630955512.0
ostrovnoy,TR,68.0531,39.5131,4.57,8.93,1006.0,81.0,100.0,1630955514.0
pacific grove,TR,36.6177,-121.9166,19.91,1.79,1014.0,75.0,1.0,1630955515.0
port hedland,TR,-20.3167,118.5667,21.03,5.66,1019.0,16.0,6.0,1630955516.0
tbilisskaya,TR,45.3633,40.19,12.16,1.86,1023.0,57.0,1.0,1630955518.0
longyearbyen,TR,78.2186,15.6401,3.91,3.6,1014.0,70.0,75.0,1630955519.0
otjiwarongo,TR,-20.4637,16.6477,18.59,5.19,1016.0,16.0,4.0,1630955520.0
dwarka,TR,22.2394,68.9678,27.46,4.11,1005.0,87.0,100.0,1630955522.0
deputatskiy,TR,69.3,139.9,5.44,5.78,1011.0,93.0,100.0,1630955523.0
mount gambier,TR,-37.8333,140.7667,9.57,3.37,1031.0,79.0,26.0,1630955524.0
half moon bay,TR,37.4636,-122.4286,25.53,2.57,1016.0,62.0,40.0,1630955459.0
svetlogorsk,TR,52.6333,29.7333,7.24,0.84,1028.0,66.0,93.0,1630955528.0
kloulklubed,TR,7.0419,134.2556,26.28,4.75,1008.0,74.0,100.0,1630955529.0
portland,TR,45.5234,-122.6762,22.49,0.89,1019.0,55.0,20.0,1630955345.0
binabalian,TR,16.4202,119.9279,26.71,1.34,1008.0,80.0,91.0,1630955532.0
mount isa,TR,-20.7333,139.5,14.87,6.69,1022.0,26.0,33.0,1630955533.0
ochamchira,TR,42.7121,41.4721,18.94,1.82,1020.0,75.0,92.0,1630955536.0
cockburn town,TR,21.4612,-71.1419,29.98,3.09,1015.0,66.0,40.0,1630955537.0
shahrud,TR,36.4182,54.9763,25.35,2.07,1013.0,34.0,0.0,1630955539.0
luganville,TR,-15.5333,167.1667,22.31,1.36,1013.0,82.0,14.0,1630955541.0
letterkenny,TR,54.95,-7.7333,19.94,1.36,1021.0,93.0,100.0,1630955542.0
kerema,TR,-7.9631,145.7785,24.84,3.36,1010.0,86.0,100.0,1630955544.0
los llanos de aridane,TR,28.6585,-17.9182,23.96,2.06,1015.0,86.0,75.0,1630955545.0
effingham,TR,32.3669,-81.3332,32.59,2.4,1012.0,63.0,0.0,1630955547.0
wenshang,TR,35.7275,116.4961,17.38,3.31,1015.0,97.0,100.0,1630955548.0
palmerston,TR,-12.486,130.9833,23.91,4.63,1013.0,41.0,5.0,1630955549.0
nkhata bay,TR,-11.6066,34.2907,22.44,2.57,1017.0,61.0,11.0,1630955551.0
pandan niog,TR,6.2282,120.5631,27.51,2.62,1008.0,77.0,96.0,1630955553.0
fougamou,TR,-1.2154,10.5838,25.52,1.53,1013.0,77.0,82.0,1630955554.0
sola,TR,-13.8833,167.55,25.26,6.23,1011.0,80.0,35.0,1630955556.0
nome,TR,64.5011,-165.4064,7.04,3.6,1002.0,82.0,90.0,1630955557.0
tuatapere,TR,-46.1333,167.6833,7.68,1.32,995.0,96.0,100.0,1630955558.0
scarborough,TR,54.2797,-0.4044,18.21,1.57,1022.0,85.0,100.0,1630955560.0
la ronge,TR,55.1001,-105.2842,17.78,4.62,1002.0,54.0,90.0,1630955561.0
alamosa,TR,37.4695,-105.87,25.99,2.57,1028.0,21.0,1.0,1630955563.0
sydney,TR,-33.8679,151.2073,6.71,4.12,1026.0,86.0,0.0,1630955486.0
port hardy,TR,50.6996,-127.4199,15.7,2.29,1020.0,77.0,100.0,1630955565.0
kodiak,TR,57.79,-152.4072,13.73,2.06,1013.0,72.0,1.0,1630955371.0
aykhal,TR,66.0,111.5,6.12,1.48,1018.0,52.0,0.0,1630955568.0
amapa,TR,1.0,-52.0,32.2,2.21,1009.0,47.0,100.0,1630955569.0
burnie,TR,-41.0667,145.9167,11.08,9.0,1018.0,72.0,100.0,1630955570.0
las palmas,TR,28.4204,-14.0131,27.44,4.63,1014.0,58.0,0.0,1630955572.0
dakar,TR,14.6937,-17.4441,29.49,4.88,1013.0,76.0,18.0,1630955573.0
taltal,TR,-25.4,-70.4833,15.29,3.3,1017.0,74.0,100.0,1630955574.0
komsomolskiy,TR,40.4272,71.7189,21.68,1.93,1011.0,17.0,0.0,1630955576.0
plainview,TR,40.7765,-73.4673,27.82,1.79,1007.0,47.0,20.0,1630955577.0
ngorongoro,TR,-3.2397,35.4875,11.67,2.43,1019.0,69.0,13.0,1630955579.0
berezovyy,TR,51.6667,135.7,11.82,0.43,1018.0,98.0,100.0,1630955581.0
luba,TR,3.4568,8.5547,25.43,1.4,1015.0,84.0,48.0,1630955582.0
grenada,TR,37.1882,-3.6067,30.5,1.34,1015.0,23.0,0.0,1630955583.0
ekhabi,TR,53.5102,142.9671,8.68,2.14,1019.0,89.0,0.0,1630955585.0
chimoio,TR,-19.1164,33.4833,19.92,5.14,1021.0,100.0,0.0,1630955586.0
vostok,TR,46.4856,135.8833,11.52,1.94,1019.0,82.0,100.0,1630955588.0
teahupoo,TR,-17.8333,-149.2667,23.98,5.13,1018.0,81.0,60.0,1630955589.0
severo-yeniseyskiy,TR,60.3725,93.0408,4.67,1.16,1020.0,82.0,4.0,1630955590.0
manica,TR,49.0,-1.1667,23.67,3.0,1021.0,67.0,3.0,1630955592.0
batagay-alyta,TR,67.8006,130.4114,7.86,2.7,1017.0,77.0,14.0,1630955593.0
challapata,TR,-18.9,-66.7667,17.03,6.98,1008.0,22.0,27.0,1630955594.0
akrini,TR,40.4333,21.9,16.25,1.54,1023.0,48.0,72.0,1630955596.0
champerico,TR,14.3,-91.9167,31.95,4.16,1011.0,71.0,9.0,1630955597.0
calabozo,TR,8.9242,-67.4293,30.65,0.08,1009.0,65.0,100.0,1630955598.0
bubaque,TR,11.2833,-15.8333,27.63,4.9,1012.0,81.0,100.0,1630955600.0
kijang,TR,35.2442,129.2139,23.3,5.11,1013.0,76.0,100.0,1630955601.0
mafeteng,TR,-29.823,27.2374,11.33,2.1,1018.0,44.0,82.0,1630955602.0
ngaoundere,TR,7.3167,13.5833,17.57,0.61,1016.0,97.0,100.0,1630955604.0
beaverlodge,TR,55.2166,-119.4361,18.37,10.36,1010.0,38.0,0.0,1630955605.0
payakumbuh,TR,-0.2202,100.6308,20.54,0.41,1012.0,98.0,91.0,1630955607.0
ahar,TR,38.4774,47.0699,16.66,2.45,1017.0,76.0,0.0,1630955609.0
piacabucu,TR,-10.4056,-36.4344,26.17,4.93,1013.0,75.0,6.0,1630955610.0
high level,TR,58.5169,-117.136,18.1,5.95,1003.0,43.0,100.0,1630955612.0
angoche,TR,-16.2325,39.9086,23.75,4.97,1018.0,77.0,4.0,1630955613.0
fort nelson,TR,58.8053,-122.7002,19.54,5.93,1006.0,37.0,17.0,1630955614.0
tongchuan,TR,35.0806,109.0897,16.69,2.05,1019.0,75.0,86.0,1630955616.0
egvekinot,TR,66.3167,-179.1667,-0.7,1.4,1000.0,54.0,38.0,1630955617.0
biryusinsk,TR,55.9634,97.8235,6.69,0.73,1019.0,90.0,100.0,1630955619.0
tutoia,TR,-2.7619,-42.2744,29.99,6.03,1009.0,73.0,80.0,1630955620.0
coihaique,TR,-45.5752,-72.0662,12.97,2.06,1018.0,44.0,40.0,1630955622.0
bindura,TR,-17.3019,31.3306,21.12,1.56,1017.0,38.0,0.0,1630955623.0
vilyuysk,TR,63.7553,121.6247,5.03,2.12,1019.0,66.0,100.0,1630955624.0
rialma,TR,-15.315,-49.5844,37.2,1.47,1008.0,13.0,6.0,1630955626.0
yakeshi,TR,49.2833,120.7333,6.14,1.69,1015.0,90.0,98.0,1630955627.0
torbay,TR,47.6666,-52.7314,12.97,0.45,1018.0,78.0,100.0,1630955628.0
siavonga,TR,-16.5382,28.7088,25.18,2.22,1014.0,38.0,0.0,1630955630.0
senador guiomard,TR,-10.1522,-67.7392,33.86,3.06,1008.0,41.0,100.0,1630955631.0
laguna,TR,38.421,-121.4238,33.55,0.89,1013.0,22.0,1.0,1630955632.0
plettenberg bay,TR,-34.0527,23.3716,11.4,2.16,1031.0,80.0,62.0,1630955634.0
tigil,TR,57.8,158.6667,4.79,2.61,1007.0,92.0,14.0,1630955635.0
broome,TR,42.2506,-75.833,21.63,2.24,1009.0,64.0,5.0,1630955636.0
kropotkin,TR,45.4375,40.5756,12.72,1.54,1023.0,54.0,12.0,1630955639.0
muisne,TR,0.6,-80.0333,24.59,4.46,1012.0,84.0,100.0,1630955640.0
moose factory,TR,51.2585,-80.6094,11.92,4.68,1005.0,90.0,100.0,1630955642.0
lockport,TR,41.5895,-88.0578,27.38,2.06,1013.0,47.0,1.0,1630955643.0
yanam,TR,16.7333,82.2167,23.98,4.52,1002.0,96.0,100.0,1630955644.0
trairi,TR,-3.2778,-39.2689,28.36,7.32,1010.0,61.0,12.0,1630955474.0
gat,TR,31.61,34.7642,25.85,1.83,1013.0,65.0,0.0,1630955647.0
talnakh,TR,69.4865,88.3972,11.43,5.93,1011.0,75.0,23.0,1630955648.0
durango,TR,24.8333,-104.8333,22.32,3.37,1016.0,51.0,100.0,1630955447.0
corn island,TR,12.1694,-83.0418,28.14,5.12,1010.0,76.0,100.0,1630955651.0
zhezkazgan,TR,47.8043,67.7144,18.67,4.62,1016.0,34.0,0.0,1630955652.0
zyryanka,TR,65.75,150.85,9.71,8.35,1007.0,92.0,100.0,1630955654.0
axim,TR,4.8699,-2.2405,24.33,2.54,1014.0,91.0,26.0,1630955655.0
biak,TR,-0.9131,122.8766,23.28,3.18,1011.0,84.0,91.0,1630955656.0
safford,TR,32.834,-109.7076,32.51,2.57,1019.0,40.0,1.0,1630955659.0
sampit,TR,-2.5333,112.95,22.59,0.45,1010.0,98.0,98.0,1630955660.0
tamiahua,TR,21.2667,-97.45,29.38,3.2,1012.0,71.0,100.0,1630955661.0
brae,TR,60.3964,-1.353,13.95,7.0,1017.0,88.0,100.0,1630955663.0
goba,TR,7.0167,39.9833,10.89,1.75,1020.0,92.0,61.0,1630955664.0
boromo,TR,11.75,-2.9333,29.57,2.27,1011.0,51.0,93.0,1630955668.0
marataizes,TR,-21.0433,-40.8244,24.64,7.74,1014.0,79.0,0.0,1630955669.0
general roca,TR,-39.0333,-67.5833,18.29,4.66,1014.0,40.0,21.0,1630955670.0
korla,TR,41.7597,86.1469,23.71,2.94,1014.0,25.0,0.0,1630955672.0
selty,TR,57.3132,52.1345,4.5,1.28,1019.0,91.0,97.0,1630955673.0
dzhebariki-khaya,TR,62.2167,135.8,4.77,0.53,1020.0,79.0,100.0,1630955675.0
lunas,TR,10.6402,123.7525,25.6,2.19,1007.0,86.0,100.0,1630955676.0
santa cruz de la palma,TR,28.6835,-17.7642,26.08,2.06,1016.0,83.0,75.0,1630955677.0
tautira,TR,-17.7333,-149.15,27.01,5.1,1018.0,79.0,63.0,1630955679.0
isangel,TR,-19.55,169.2667,20.91,2.31,1013.0,82.0,0.0,1630955680.0
todos santos,TR,23.45,-110.2167,27.28,5.13,1013.0,83.0,1.0,1630955681.0
taua,TR,-5.9667,-40.3,36.31,3.7,1007.0,21.0,95.0,1630955683.0
jiaxing,TR,30.7522,120.75,27.01,3.23,1012.0,85.0,100.0,1630955684.0
kharp,TR,66.8014,65.8081,4.78,5.3,1001.0,93.0,98.0,1630955685.0
great falls,TR,47.5002,-111.3008,27.47,8.23,1014.0,29.0,75.0,1630955687.0
camana,TR,-16.6228,-72.7111,17.42,3.96,1017.0,74.0,80.0,1630955688.0
hobyo,TR,5.3505,48.5268,25.4,11.62,1012.0,83.0,100.0,1630955689.0
levelland,TR,33.5873,-102.378,29.98,3.71,1015.0,42.0,16.0,1630955482.0
yulara,TR,-25.2406,130.9889,8.91,3.6,1029.0,43.0,0.0,1630955692.0
takoradi,TR,4.8845,-1.7554,24.65,3.37,1014.0,88.0,49.0,1630955693.0
puerto maldonado,TR,-12.6,-69.1833,33.53,1.72,1008.0,42.0,100.0,1630955696.0
morondava,TR,-20.2833,44.2833,23.31,6.21,1018.0,83.0,0.0,1630955698.0
gravdal,TR,68.1214,13.5031,11.94,5.14,1010.0,100.0,75.0,1630955700.0
katobu,TR,-4.9408,122.5276,23.34,1.85,1011.0,90.0,96.0,1630955701.0
luwuk,TR,-0.9516,122.7875,23.77,2.45,1011.0,87.0,93.0,1630955703.0
san andres,TR,12.5847,-81.7006,29.01,4.63,1011.0,84.0,40.0,1630955705.0
yamada,TR,39.4667,141.95,15.25,3.54,1019.0,80.0,9.0,1630955706.0
kupang,TR,-10.1667,123.5833,24.96,6.45,1012.0,79.0,83.0,1630955707.0
iskateley,TR,67.6803,53.1512,5.72,5.74,993.0,90.0,100.0,1630955709.0
krasnoturansk,TR,54.3186,91.5639,8.44,0.92,1017.0,71.0,0.0,1630955710.0
barcelos,TR,41.5388,-8.6151,23.55,1.25,1013.0,85.0,94.0,1630955634.0
kurchum,TR,48.5722,83.6542,20.92,3.27,1014.0,35.0,0.0,1630955713.0
okha,TR,53.5739,142.9478,9.73,2.43,1019.0,86.0,0.0,1630955714.0
kashi,TR,39.4547,75.9797,21.99,0.83,1015.0,31.0,0.0,1630955715.0
dauriya,TR,49.9333,116.8667,8.73,2.52,1013.0,63.0,98.0,1630955717.0
caernarfon,TR,53.1413,-4.2702,16.85,0.51,1023.0,82.0,100.0,1630955718.0
wageningen,TR,51.9667,5.6667,18.92,1.03,1024.0,80.0,90.0,1630955719.0
valparaiso,TR,-33.0393,-71.6273,16.99,7.2,1021.0,46.0,20.0,1630955721.0
marystown,TR,47.1666,-55.1483,15.32,4.12,1018.0,64.0,85.0,1630955722.0
port lincoln,TR,-34.7333,135.8667,11.41,2.23,1035.0,86.0,49.0,1630955724.0
gigmoto,TR,13.7796,124.39,27.18,4.22,1007.0,87.0,98.0,1630955725.0
hualmay,TR,-11.0964,-77.6139,18.89,5.02,1015.0,76.0,89.0,1630955726.0
cherskiy,TR,68.75,161.3,1.21,10.47,996.0,88.0,100.0,1630955728.0
maningrida,TR,-12.0667,134.2667,20.37,5.75,1013.0,78.0,60.0,1630955729.0
cilegon,TR,-6.0174,106.0538,24.94,2.0,1011.0,81.0,85.0,1630955730.0
turka,TR,49.1541,23.0297,9.03,0.71,1028.0,85.0,9.0,1630955732.0
vilhena,TR,-12.7406,-60.1458,36.86,2.18,1006.0,19.0,69.0,1630955704.0
hadishahr,TR,38.8431,45.6635,24.27,3.32,1013.0,49.0,0.0,1630955734.0
zilupe,TR,56.3862,28.1217,10.49,3.23,1024.0,74.0,100.0,1630955736.0
nara,TR,34.6851,135.8049,21.6,1.2,1014.0,85.0,99.0,1630955631.0
mao,TR,39.8885,4.2658,24.31,1.54,1021.0,88.0,20.0,1630955738.0
hof,TR,50.3167,11.9167,17.3,0.89,1022.0,69.0,100.0,1630955740.0
nemuro,TR,43.3236,145.575,13.81,4.42,1020.0,81.0,5.0,1630955741.0
vila velha,TR,-20.3297,-40.2925,24.97,6.69,1015.0,78.0,75.0,1630955570.0
coari,TR,-4.085,-63.1414,30.53,1.58,1008.0,57.0,100.0,1630955745.0
poum,TR,-20.2333,164.0167,22.01,5.47,1015.0,76.0,25.0,1630955746.0
villarrubia de los ojos,TR,39.2209,-3.608,29.95,6.46,1015.0,24.0,100.0,1630955747.0
belmonte,TR,-15.8631,-38.8828,27.28,5.1,1013.0,76.0,2.0,1630955749.0
wasilla,TR,61.5814,-149.4394,11.88,0.0,1011.0,86.0,90.0,1630955750.0
eureka,TR,40.8021,-124.1637,17.66,1.34,1013.0,79.0,100.0,1630955733.0
calbuco,TR,-41.768,-73.1273,12.56,4.49,1019.0,75.0,100.0,1630955753.0
oistins,TR,13.0667,-59.5333,31.05,3.6,1011.0,70.0,40.0,1630955754.0
elliot,TR,-31.3333,27.85,5.59,2.7,1027.0,95.0,100.0,1630955755.0
xining,TR,36.6167,101.7667,10.21,0.96,1022.0,70.0,0.0,1630955757.0
mwinilunga,TR,-11.7358,24.4293,21.66,2.13,1013.0,28.0,8.0,1630955762.0
presidente venceslau,TR,-21.8761,-51.8439,37.5,1.9,1007.0,17.0,0.0,1630955593.0
suratgarh,TR,29.3167,73.9,33.56,3.32,1003.0,53.0,22.0,1630955764.0
saint-georges,TR,12.0564,-61.7485,28.55,3.47,1011.0,69.0,11.0,1630955696.0
san quintin,TR,30.4833,-115.95,24.97,3.78,1014.0,69.0,6.0,1630955767.0
khani,TR,41.9563,42.9566,14.76,0.6,1021.0,95.0,100.0,1630955768.0
tres arroyos,TR,-38.3739,-60.2798,17.11,5.5,1019.0,51.0,87.0,1630955769.0
vila,TR,42.0304,-8.1588,19.16,1.95,1013.0,70.0,100.0,1630955771.0
guerrero negro,TR,27.9769,-114.0611,26.31,3.41,1014.0,62.0,81.0,1630955772.0
garowe,TR,8.4054,48.4845,27.18,10.12,1010.0,52.0,100.0,1630955774.0
banda aceh,TR,5.5577,95.3222,25.99,0.15,1011.0,79.0,18.0,1630955775.0
ponta delgada,TR,37.7333,-25.6667,22.4,3.09,1015.0,78.0,40.0,1630955776.0
belaya gora,TR,68.5333,146.4167,5.73,7.45,1008.0,83.0,100.0,1630955778.0
moyale,TR,3.5167,39.0584,23.52,6.86,1015.0,51.0,91.0,1630955779.0
maceio,TR,-9.6658,-35.7353,27.69,5.14,1013.0,69.0,20.0,1630955592.0
kuching,TR,1.55,110.3333,24.12,0.0,1011.0,94.0,40.0,1630955783.0
san lawrenz,TR,36.0553,14.204,23.25,0.89,1017.0,89.0,0.0,1630955785.0
lambarene,TR,-0.7001,10.2406,25.95,1.85,1013.0,74.0,95.0,1630955786.0
manacapuru,TR,-3.2997,-60.6206,32.32,2.06,1008.0,45.0,6.0,1630955787.0
muros,TR,42.7762,-9.0603,22.15,2.39,1013.0,71.0,100.0,1630955789.0
walvis bay,TR,-22.9575,14.5053,13.53,3.09,1018.0,67.0,0.0,1630955790.0
mantua,TR,45.1667,10.7833,22.18,0.89,1021.0,56.0,0.0,1630955791.0
floro,TR,61.5996,5.0328,13.06,5.66,1019.0,100.0,90.0,1630955793.0
kanniyakumari,TR,8.0833,77.5667,25.65,7.92,1009.0,82.0,100.0,1630955794.0
kavaratti,TR,10.5669,72.642,27.37,8.58,1009.0,82.0,100.0,1630955796.0
mayo,TR,38.8876,-76.5119,28.89,2.24,1005.0,44.0,1.0,1630955797.0
lucapa,TR,-8.4192,20.7447,24.87,1.98,1011.0,46.0,23.0,1630955798.0
camacha,TR,33.0833,-16.3333,22.68,5.66,1015.0,69.0,20.0,1630955800.0
murray bridge,TR,-35.1167,139.2667,10.46,2.79,1034.0,94.0,19.0,1630955717.0
tura,TR,25.5198,90.2201,22.88,2.45,1009.0,96.0,100.0,1630955804.0
salitral,TR,-4.8572,-80.6811,26.05,3.05,1011.0,55.0,100.0,1630955805.0
paracatu,TR,-17.2222,-46.8747,35.94,2.63,1009.0,13.0,5.0,1630955649.0
burns lake,TR,54.2331,-125.7533,15.68,3.89,1016.0,54.0,100.0,1630955807.0
manicore,TR,-5.8092,-61.3003,31.89,0.88,1008.0,49.0,100.0,1630955809.0
cooma,TR,-36.2333,149.1333,0.69,1.04,1027.0,70.0,0.0,1630955810.0
mahenge,TR,-8.6833,36.7167,18.81,1.46,1017.0,56.0,6.0,1630955812.0
san rafael,TR,-34.6177,-68.3301,19.82,4.98,1009.0,38.0,48.0,1630955777.0
mogadishu,TR,2.0371,45.3438,25.38,8.17,1015.0,82.0,100.0,1630955814.0
oktyabrskiy,TR,54.4815,53.471,6.15,1.11,1021.0,70.0,7.0,1630955815.0
hambantota,TR,6.1241,81.1185,26.32,7.81,1009.0,83.0,100.0,1630955817.0
yatou,TR,37.15,122.3833,22.04,9.0,1004.0,95.0,100.0,1630955818.0
naifaru,TR,5.4444,73.3657,27.67,6.42,1011.0,78.0,100.0,1630955819.0
toora-khem,TR,52.4675,96.11,6.03,1.55,1017.0,88.0,0.0,1630955821.0
parabel,TR,58.6978,81.4825,9.38,3.43,1020.0,65.0,90.0,1630955822.0
bom jesus,TR,-9.0744,-44.3586,35.59,2.41,1008.0,26.0,62.0,1630955824.0
cabra,TR,37.4725,-4.4421,29.97,3.4,1015.0,27.0,100.0,1630955825.0
lekoni,TR,-1.5843,14.2591,26.39,2.61,1013.0,65.0,100.0,1630955826.0
ballina,TR,-28.8667,153.5667,7.1,5.61,1027.0,80.0,22.0,1630955828.0
fare,TR,-16.7,-151.0167,25.74,6.61,1017.0,73.0,2.0,1630955829.0
supe,TR,-10.8,-77.7333,18.64,5.14,1015.0,77.0,97.0,1630955830.0
el rosario,TR,24.2556,-107.1828,33.11,0.27,1012.0,73.0,93.0,1630955832.0
morant bay,TR,17.8815,-76.4093,32.61,4.97,1013.0,67.0,15.0,1630955833.0
jibuti,TR,11.5,42.5,30.68,3.02,1009.0,48.0,47.0,1630955835.0
lata,TR,40.1629,-8.3327,22.88,1.74,1013.0,68.0,30.0,1630955836.0
nadym,TR,65.5333,72.5167,6.93,7.18,1009.0,79.0,54.0,1630955837.0
te anau,TR,-45.4167,167.7167,3.89,0.74,996.0,98.0,100.0,1630955792.0
hudson bay,TR,52.85,-102.3842,20.25,4.69,1004.0,47.0,100.0,1630955840.0
barlinek,TR,52.9946,15.2186,16.86,3.28,1023.0,56.0,100.0,1630955842.0
jammal,TR,35.6223,10.757,26.82,6.69,1018.0,65.0,20.0,1630955843.0
dharchula,TR,29.85,80.5333,21.69,1.51,1013.0,91.0,5.0,1630955845.0
tete,TR,-16.1564,33.5867,29.05,3.09,1015.0,30.0,0.0,1630955846.0
alugan,TR,12.2188,125.4808,26.09,9.08,1005.0,90.0,100.0,1630955847.0
juba,TR,4.8517,31.5825,23.49,1.47,1012.0,72.0,32.0,1630955849.0
cervo,TR,43.6702,-7.4101,22.2,5.35,1012.0,73.0,100.0,1630955850.0
yeppoon,TR,-23.1333,150.7333,11.88,4.95,1023.0,51.0,99.0,1630955851.0
olafsvik,TR,64.8945,-23.7142,10.69,4.74,998.0,74.0,66.0,1630955853.0
hailar,TR,49.2,119.7,7.39,2.56,1014.0,74.0,85.0,1630955854.0
enshi,TR,30.3,109.4833,21.12,0.22,1017.0,99.0,100.0,1630955856.0
senanga,TR,-16.1167,23.2667,23.35,3.31,1013.0,21.0,0.0,1630955857.0
sorong,TR,-0.8833,131.25,25.29,3.38,1008.0,91.0,33.0,1630955858.0
gubkinskiy,TR,64.434,76.5026,8.36,7.78,1014.0,70.0,57.0,1630955860.0
baykit,TR,61.67,96.37,9.34,0.69,1020.0,72.0,100.0,1630955861.0
joshimath,TR,30.5667,79.5667,21.59,0.45,1017.0,91.0,69.0,1630955862.0
luanda,TR,-8.8368,13.2343,22.0,4.63,1012.0,94.0,40.0,1630955607.0
seddon,TR,-37.8068,144.8916,11.28,1.34,1026.0,79.0,90.0,1630955865.0
vitim,TR,59.4511,112.5578,4.47,0.4,1019.0,97.0,100.0,1630955866.0
ushtobe,TR,45.2514,77.9838,23.13,2.65,1011.0,21.0,0.0,1630955868.0
caraquet,TR,47.7941,-64.9386,18.47,3.89,1006.0,89.0,100.0,1630955869.0
coulommiers,TR,48.8145,3.085,22.64,3.5,1010.0,59.0,100.0,1630955870.0
bathsheba,TR,13.2167,-59.5167,31.34,3.6,1011.0,70.0,40.0,1630955872.0
erzin,TR,36.9559,36.2,25.56,0.51,1012.0,80.0,14.0,1630955873.0
